t,x,y,z,roll,pitch,heading,u,v,w,p,q,r,lon,lat,left,right,bow_ver,bow_hor,stern_ver,stern_hor,elevator,rudder,
0.05000000,0.00000000,0.00000000,0.00000000,0.00000000,0.00000000,0.00000000,0.00003917,0.00000001,0.06096571,-0.00000003,-0.00142643,-0.00000039,0.00000000,0.00000000,0.00000000,0.00000000,0.00000000,0.00000000,0.00000000,0.00000000,0.00000000,0.00000000,
0.10000000,0.00000196,0.00000000,0.00304829,-0.00000000,-0.00007132,6.28318529,0.00010228,0.00000001,0.12186185,-0.00000007,-0.00285492,-0.00000077,0.00000000,0.00000000,0.00000000,0.00000000,0.00000000,0.00000000,0.00000000,0.00000000,0.00000000,0.00000000,
0.15000000,0.00000664,0.00000000,0.00914138,-0.00000001,-0.00021407,6.28318525,0.00024960,0.00000008,0.18108060,-0.00000010,-0.00424143,-0.00000101,0.00000000,0.00000000,0.00000000,0.00000000,0.00000000,0.00000000,0.00000000,0.00000000,0.00000000,0.00000000,
0.20000000,0.00001718,0.00000000,0.01819541,-0.00000001,-0.00042614,6.28318520,0.00053766,0.00000006,0.23708146,-0.00000014,-0.00554188,-0.00000126,0.00000000,0.00000000,0.00000000,0.00000000,0.00000000,0.00000000,0.00000000,0.00000000,0.00000000,0.00000000,
0.25000000,0.00003901,0.00000001,0.03004949,-0.00000002,-0.00070323,6.28318514,0.00101376,0.00000003,0.28846602,-0.00000018,-0.00671375,-0.00000139,0.00000000,0.00000000,0.00000000,0.00000000,0.00000000,0.00000000,0.00000000,0.00000000,0.00000000,0.00000000,
0.30000000,0.00007956,0.00000001,0.04447283,-0.00000003,-0.00103892,6.28318507,0.00171139,0.00000005,0.33406195,-0.00000022,-0.00771790,-0.00000146,0.00000000,0.00000000,0.00000000,0.00000000,0.00000000,0.00000000,0.00000000,0.00000000,0.00000000,0.00000000,
0.35000000,0.00014777,0.00000001,0.06117600,-0.00000004,-0.00142482,6.28318499,0.00264494,0.00000006,0.37296997,-0.00000027,-0.00852092,-0.00000150,0.00000000,0.00000000,0.00000000,0.00000000,0.00000000,0.00000000,0.00000000,0.00000000,0.00000000,0.00000000,
0.40000000,0.00025345,0.00000002,0.07982467,-0.00000005,-0.00185086,6.28318492,0.00380864,-0.00000003,0.40462873,-0.00000032,-0.00909736,-0.00000146,0.00000000,0.00000000,0.00000000,0.00000000,0.00000000,0.00000000,0.00000000,0.00000000,0.00000000,0.00000000,
0.45000000,0.00040643,0.00000002,0.10005643,-0.00000007,-0.00230573,6.28318484,0.00517686,0.00000005,0.42878112,-0.00000036,-0.00943214,-0.00000147,0.00000000,0.00000000,0.00000000,0.00000000,0.00000000,0.00000000,0.00000000,0.00000000,0.00000000,0.00000000,
0.50000000,0.00061584,0.00000002,0.12149602,-0.00000008,-0.00277734,6.28318477,0.00670583,0.00000003,0.44548837,-0.00000040,-0.00952214,-0.00000147,0.00000000,0.00000001,0.00000000,0.00000000,0.00000000,0.00000000,0.00000000,0.00000000,0.00000000,0.00000000,
0.55000000,0.00088927,0.00000002,0.14377129,-0.00000010,-0.00325344,6.28318470,0.00833920,-0.00000003,0.45507871,-0.00000045,-0.00937712,-0.00000143,0.00000000,0.00000001,0.00000000,0.00000000,0.00000000,0.00000000,0.00000000,0.00000000,0.00000000,0.00000000,
0.60000000,0.00123220,0.00000002,0.16652646,-0.00000013,-0.00372230,6.28318463,0.01001382,-0.00000001,0.45810959,-0.00000049,-0.00901968,-0.00000134,0.00000000,0.00000001,0.00000000,0.00000000,0.00000000,0.00000000,0.00000000,0.00000000,0.00000000,0.00000000,
0.65000000,0.00164763,0.00000003,0.18943364,-0.00000015,-0.00417328,6.28318456,0.01166680,-0.00000002,0.45531547,-0.00000053,-0.00848429,-0.00000120,0.00000000,0.00000001,0.00000000,0.00000000,0.00000000,0.00000000,0.00000000,0.00000000,0.00000000,0.00000000,
0.70000000,0.00213595,0.00000003,0.21220165,-0.00000018,-0.00459750,6.28318450,0.01324202,-0.00000009,0.44755983,-0.00000057,-0.00781584,-0.00000114,0.00000000,0.00000002,0.00000000,0.00000000,0.00000000,0.00000000,0.00000000,0.00000000,0.00000000,0.00000000,
0.75000000,0.00269517,0.00000003,0.23458245,-0.00000021,-0.00498829,6.28318444,0.01469625,-0.00000012,0.43579438,-0.00000061,-0.00706839,-0.00000111,0.00000000,0.00000002,0.00000000,0.00000000,0.00000000,0.00000000,0.00000000,0.00000000,0.00000000,0.00000000,
0.80000000,0.00332128,0.00000003,0.25637557,-0.00000024,-0.00534171,6.28318439,0.01600326,-0.00000011,0.42103286,-0.00000064,-0.00630502,-0.00000108,0.00000000,0.00000003,0.00000000,0.00000000,0.00000000,0.00000000,0.00000000,0.00000000,0.00000000,0.00000000,
0.85000000,0.00400898,0.00000002,0.27743118,-0.00000027,-0.00565696,6.28318433,0.01715896,-0.00000011,0.40436002,-0.00000067,-0.00560306,-0.00000107,0.00000000,0.00000004,0.00000000,0.00000000,0.00000000,0.00000000,0.00000000,0.00000000,0.00000000,0.00000000,
0.90000000,0.00475254,0.00000002,0.29765371,-0.00000030,-0.00593711,6.28318428,0.01820047,-0.00000009,0.38713151,-0.00000070,-0.00509642,-0.00000106,0.00000000,0.00000004,0.00000000,0.00000000,0.00000000,0.00000000,0.00000000,0.00000000,0.00000000,0.00000000,
0.95000000,0.00554762,0.00000002,0.31701535,-0.00000033,-0.00619193,6.28318423,0.01915445,-0.00000008,0.37054586,-0.00000072,-0.00481902,-0.00000104,0.00000000,0.00000005,0.00000000,0.00000000,0.00000000,0.00000000,0.00000000,0.00000000,0.00000000,0.00000000,
1.00000000,0.00639061,0.00000003,0.33554822,-0.00000037,-0.00643289,6.28318418,0.01997450,-0.00000007,0.35422594,-0.00000074,-0.00452474,-0.00000101,0.00000000,0.00000006,0.00000000,0.00000000,0.00000000,0.00000000,0.00000000,0.00000000,0.00000000,0.00000000,
1.05000000,0.00727538,0.00000003,0.35326557,-0.00000041,-0.00665912,6.28318412,0.02066722,-0.00000006,0.33815831,-0.00000075,-0.00421493,-0.00000099,0.00000000,0.00000007,0.00000000,0.00000000,0.00000000,0.00000000,0.00000000,0.00000000,0.00000000,0.00000000,
1.10000000,0.00819613,0.00000003,0.37018000,-0.00000044,-0.00686987,6.28318408,0.02123921,-0.00000005,0.32232992,-0.00000077,-0.00389084,-0.00000097,0.00000000,0.00000007,0.00000000,0.00000000,0.00000000,0.00000000,0.00000000,0.00000000,0.00000000,0.00000000,
1.15000000,0.00914735,0.00000003,0.38630341,-0.00000048,-0.00706441,6.28318403,0.02169707,-0.00000004,0.30672810,-0.00000078,-0.00355360,-0.00000095,0.00000000,0.00000008,0.00000000,0.00000000,0.00000000,0.00000000,0.00000000,0.00000000,0.00000000,0.00000000,
1.20000000,0.01012383,0.00000004,0.40164709,-0.00000052,-0.00724209,6.28318398,0.02204739,-0.00000003,0.29134056,-0.00000079,-0.00320419,-0.00000093,0.00000000,0.00000009,0.00000000,0.00000000,0.00000000,0.00000000,0.00000000,0.00000000,0.00000000,0.00000000,
1.25000000,0.01112068,0.00000004,0.41622172,-0.00000056,-0.00740230,6.28318393,0.02229672,-0.00000001,0.27615537,-0.00000080,-0.00284355,-0.00000091,0.00000000,0.00000010,0.00000000,0.00000000,0.00000000,0.00000000,0.00000000,0.00000000,0.00000000,0.00000000,
1.30000000,0.01213327,0.00000005,0.43003736,-0.00000060,-0.00754448,6.28318389,0.02245157,0.00000000,0.26116091,-0.00000081,-0.00247247,-0.00000090,0.00000000,0.00000011,0.00000000,0.00000000,0.00000000,0.00000000,0.00000000,0.00000000,0.00000000,0.00000000,
1.35000000,0.01315730,0.00000006,0.44310351,-0.00000064,-0.00766810,6.28318384,0.02251843,-0.00000001,0.24634588,-0.00000081,-0.00209170,-0.00000088,0.00000000,0.00000012,0.00000000,0.00000000,0.00000000,0.00000000,0.00000000,0.00000000,0.00000000,0.00000000,
1.40000000,0.01418874,0.00000006,0.45542907,-0.00000068,-0.00777269,6.28318380,0.02250374,0.00000001,0.23169927,-0.00000081,-0.00170188,-0.00000086,0.00000000,0.00000013,0.00000000,0.00000000,0.00000000,0.00000000,0.00000000,0.00000000,0.00000000,0.00000000,
1.45000000,0.01522385,0.00000007,0.46702243,-0.00000072,-0.00785778,6.28318376,0.02241388,0.00000001,0.21721035,-0.00000082,-0.00130362,-0.00000085,0.00000000,0.00000014,0.00000000,0.00000000,0.00000000,0.00000000,0.00000000,0.00000000,0.00000000,0.00000000,
1.50000000,0.01625917,0.00000008,0.47789142,-0.00000076,-0.00792296,6.28318371,0.02225521,0.00000001,0.20286864,-0.00000081,-0.00089743,-0.00000083,0.00000000,0.00000015,0.00000000,0.00000000,0.00000000,0.00000000,0.00000000,0.00000000,0.00000000,0.00000000,
1.55000000,0.01729153,0.00000008,0.48804335,-0.00000080,-0.00796783,6.28318367,0.02203404,0.00000002,0.18866391,-0.00000081,-0.00048379,-0.00000082,0.00000000,0.00000016,0.00000000,0.00000000,0.00000000,0.00000000,0.00000000,0.00000000,0.00000000,0.00000000,
1.60000000,0.01831804,0.00000009,0.49748502,-0.00000084,-0.00799202,6.28318363,0.02175665,0.00000003,0.17458614,-0.00000081,-0.00006311,-0.00000081,0.00000000,0.00000016,0.00000000,0.00000000,0.00000000,0.00000000,0.00000000,0.00000000,0.00000000,0.00000000,
1.65000000,0.01933607,0.00000010,0.50622275,-0.00000088,-0.00799518,6.28318359,0.02142925,0.00000004,0.16062553,-0.00000080,0.00036424,-0.00000080,0.00000000,0.00000017,0.00000000,0.00000000,0.00000000,0.00000000,0.00000000,0.00000000,0.00000000,0.00000000,
1.70000000,0.02034329,0.00000010,0.51426233,-0.00000092,-0.00797697,6.28318355,0.02105805,0.00000005,0.14676327,-0.00000079,0.00079825,-0.00000079,0.00000000,0.00000018,0.00000000,0.00000000,0.00000000,0.00000000,0.00000000,0.00000000,0.00000000,0.00000000,
1.75000000,0.02133762,0.00000011,0.52160866,-0.00000096,-0.00793705,6.28318351,0.02064920,0.00000007,0.13298994,-0.00000078,0.00123856,-0.00000078,0.00000000,0.00000019,0.00000000,0.00000000,0.00000000,0.00000000,0.00000000,0.00000000,0.00000000,0.00000000,
1.80000000,0.02231727,0.00000012,0.52826614,-0.00000100,-0.00787512,6.28318347,0.02020883,0.00000009,0.11929806,-0.00000076,0.00168480,-0.00000077,0.00000000,0.00000020,0.00000000,0.00000000,0.00000000,0.00000000,0.00000000,0.00000000,0.00000000,0.00000000,
1.85000000,0.02328071,0.00000013,0.53423882,-0.00000104,-0.00779088,6.28318343,0.01974307,0.00000012,0.10568028,-0.00000075,0.00213662,-0.00000076,0.00000000,0.00000021,0.00000000,0.00000000,0.00000000,0.00000000,0.00000000,0.00000000,0.00000000,0.00000000,
1.90000000,0.02422667,0.00000014,0.53953036,-0.00000107,-0.00768405,6.28318339,0.01925805,0.00000014,0.09212939,-0.00000073,0.00259370,-0.00000076,0.00000000,0.00000022,0.00000000,0.00000000,0.00000000,0.00000000,0.00000000,0.00000000,0.00000000,0.00000000,
1.95000000,0.02515414,0.00000015,0.54414410,-0.00000111,-0.00755437,6.28318336,0.01875991,0.00000017,0.07863831,-0.00000071,0.00305573,-0.00000075,0.00000000,0.00000023,0.00000000,0.00000000,0.00000000,0.00000000,0.00000000,0.00000000,0.00000000,0.00000000,
2.00000000,0.02606241,0.00000016,0.54808299,-0.00000115,-0.00740158,6.28318332,0.01825478,0.00000020,0.06520011,-0.00000069,0.00352245,-0.00000075,0.00000000,0.00000023,0.00000000,0.00000000,0.00000000,0.00000000,0.00000000,0.00000000,0.00000000,0.00000000,
2.05000000,0.02695100,0.00000017,0.55134966,-0.00000118,-0.00722546,6.28318328,0.01774881,0.00000024,0.05180793,-0.00000067,0.00399359,-0.00000074,0.00000000,0.00000024,0.00000000,0.00000000,0.00000000,0.00000000,0.00000000,0.00000000,0.00000000,0.00000000,
2.10000000,0.02781970,0.00000018,0.55394640,-0.00000121,-0.00702578,6.28318324,0.01724814,0.00000028,0.03845502,-0.00000064,0.00446892,-0.00000074,0.00000000,0.00000025,0.00000000,0.00000000,0.00000000,0.00000000,0.00000000,0.00000000,0.00000000,0.00000000,
2.15000000,0.02866857,0.00000020,0.55587516,-0.00000124,-0.00680233,6.28318321,0.01675893,0.00000032,0.02513476,-0.00000061,0.00494821,-0.00000074,0.00000000,0.00000026,0.00000000,0.00000000,0.00000000,0.00000000,0.00000000,0.00000000,0.00000000,0.00000000,
2.20000000,0.02949795,0.00000021,0.55713757,-0.00000128,-0.00655492,6.28318317,0.01628739,0.00000036,0.01184056,-0.00000059,0.00543125,-0.00000074,0.00000000,0.00000027,0.00000000,0.00000000,0.00000000,0.00000000,0.00000000,0.00000000,0.00000000,0.00000000,
2.25000000,0.03030842,0.00000023,0.55773492,-0.00000130,-0.00628336,6.28318313,0.01583970,0.00000041,-0.00143404,-0.00000056,0.00591785,-0.00000074,0.00000000,0.00000027,0.00000000,0.00000000,0.00000000,0.00000000,0.00000000,0.00000000,0.00000000,0.00000000,
2.30000000,0.03110084,0.00000025,0.55766820,-0.00000133,-0.00598747,6.28318309,0.01542212,0.00000045,-0.01469537,-0.00000052,0.00640679,-0.00000074,0.00000000,0.00000028,0.00000000,0.00000000,0.00000000,0.00000000,0.00000000,0.00000000,0.00000000,0.00000000,
2.35000000,0.03187633,0.00000027,0.55693806,-0.00000136,-0.00566713,6.28318306,0.01504113,0.00000050,-0.02794236,-0.00000049,0.00688972,-0.00000074,0.00000000,0.00000029,0.00000000,0.00000000,0.00000000,0.00000000,0.00000000,0.00000000,0.00000000,0.00000000,
2.40000000,0.03263630,0.00000029,0.55554523,-0.00000138,-0.00532264,6.28318302,0.01470292,0.00000055,-0.04116955,-0.00000046,0.00736711,-0.00000074,0.00000000,0.00000029,0.00000000,0.00000000,0.00000000,0.00000000,0.00000000,0.00000000,0.00000000,0.00000000,
2.45000000,0.03338239,0.00000031,0.55349069,-0.00000140,-0.00495429,6.28318298,0.01441362,0.00000060,-0.05437147,-0.00000042,0.00783944,-0.00000074,0.00000000,0.00000030,0.00000000,0.00000000,0.00000000,0.00000000,0.00000000,0.00000000,0.00000000,0.00000000,
2.50000000,0.03411653,0.00000034,0.55077572,-0.00000143,-0.00456232,6.28318295,0.01417928,0.00000065,-0.06754268,-0.00000038,0.00830718,-0.00000074,0.00000000,0.00000031,0.00000000,0.00000000,0.00000000,0.00000000,0.00000000,0.00000000,0.00000000,0.00000000,
2.55000000,0.03484089,0.00000036,0.54740186,-0.00000144,-0.00414696,6.28318291,0.01400586,0.00000070,-0.08067773,-0.00000035,0.00877082,-0.00000074,0.00000000,0.00000031,0.00000000,0.00000000,0.00000000,0.00000000,0.00000000,0.00000000,0.00000000,0.00000000,
2.60000000,0.03555791,0.00000039,0.54337091,-0.00000146,-0.00370842,6.28318287,0.01389925,0.00000075,-0.09377118,-0.00000031,0.00923084,-0.00000074,0.00000000,0.00000032,0.00000000,0.00000000,0.00000000,0.00000000,0.00000000,0.00000000,0.00000000,0.00000000,
2.65000000,0.03627025,0.00000042,0.53868496,-0.00000148,-0.00324687,6.28318283,0.01386524,0.00000081,-0.10681759,-0.00000027,0.00968772,-0.00000074,0.00000000,0.00000033,0.00000000,0.00000000,0.00000000,0.00000000,0.00000000,0.00000000,0.00000000,0.00000000,
2.70000000,0.03698085,0.00000045,0.53334636,-0.00000149,-0.00276249,6.28318280,0.01390957,0.00000086,-0.11981154,-0.00000023,0.01014191,-0.00000073,0.00000000,0.00000033,0.00000000,0.00000000,0.00000000,0.00000000,0.00000000,0.00000000,0.00000000,0.00000000,
2.75000000,0.03769288,0.00000048,0.52735773,-0.00000150,-0.00225539,6.28318276,0.01403789,0.00000091,-0.13274760,-0.00000019,0.01059386,-0.00000073,0.00000000,0.00000034,0.00000000,0.00000000,0.00000000,0.00000000,0.00000000,0.00000000,0.00000000,0.00000000,
2.80000000,0.03840974,0.00000052,0.52072195,-0.00000151,-0.00172570,6.28318272,0.01425578,0.00000096,-0.14562037,-0.00000015,0.01104400,-0.00000073,0.00000000,0.00000035,0.00000000,0.00000000,0.00000000,0.00000000,0.00000000,0.00000000,0.00000000,0.00000000,
2.85000000,0.03913509,0.00000055,0.51344217,-0.00000152,-0.00117350,6.28318268,0.01456872,0.00000101,-0.15842441,-0.00000011,0.01149276,-0.00000073,0.00000000,0.00000035,0.00000000,0.00000000,0.00000000,0.00000000,0.00000000,0.00000000,0.00000000,0.00000000,
2.90000000,0.03987282,0.00000059,0.50552181,-0.00000152,-0.00059886,6.28318265,0.01498214,0.00000106,-0.17115434,-0.00000007,0.01194051,-0.00000073,0.00000000,0.00000036,0.00000000,0.00000000,0.00000000,0.00000000,0.00000000,0.00000000,0.00000000,0.00000000,
2.95000000,0.04062706,0.00000063,0.49696454,-0.00000153,-0.00000184,6.28318261,0.01550139,0.00000111,-0.18380476,-0.00000003,0.01238761,-0.00000073,0.00000000,0.00000037,0.00000000,0.00000000,0.00000000,0.00000000,0.00000000,0.00000000,0.00000000,0.00000000,
3.00000000,0.04140214,0.00000067,0.48777430,-0.00000153,0.00061754,6.28318257,0.01613172,0.00000116,-0.19637027,0.00000001,0.01283441,-0.00000072,0.00000000,0.00000037,0.00000000,0.00000000,0.00000000,0.00000000,0.00000000,0.00000000,0.00000000,0.00000000,
3.05000000,0.04220266,0.00000071,0.47795529,-0.00000153,0.00125927,6.28318253,0.01687831,0.00000120,-0.20884552,0.00000005,0.01328120,-0.00000072,0.00000000,0.00000038,0.00000000,0.00000000,0.00000000,0.00000000,0.00000000,0.00000000,0.00000000,0.00000000,
3.10000000,0.04303343,0.00000075,0.46751196,-0.00000153,0.00192333,6.28318250,0.01774627,0.00000125,-0.22122513,0.00000009,0.01372825,-0.00000071,0.00000000,0.00000039,0.00000000,0.00000000,0.00000000,0.00000000,0.00000000,0.00000000,0.00000000,0.00000000,
3.15000000,0.04389947,0.00000079,0.45644902,-0.00000152,0.00260974,6.28318246,0.01874061,0.00000129,-0.23350378,0.00000013,0.01417579,-0.00000071,0.00000000,0.00000040,0.00000000,0.00000000,0.00000000,0.00000000,0.00000000,0.00000000,0.00000000,0.00000000,
3.20000000,0.04480603,0.00000084,0.44477143,-0.00000152,0.00331853,6.28318242,0.01986625,0.00000134,-0.24567613,0.00000017,0.01462402,-0.00000070,0.00000000,0.00000040,0.00000000,0.00000000,0.00000000,0.00000000,0.00000000,0.00000000,0.00000000,0.00000000,
3.25000000,0.04575857,0.00000088,0.43248439,-0.00000151,0.00404973,6.28318239,0.02112802,0.00000138,-0.25773691,0.00000021,0.01507308,-0.00000069,0.00000000,0.00000041,0.00000000,0.00000000,0.00000000,0.00000000,0.00000000,0.00000000,0.00000000,0.00000000,
3.30000000,0.04676277,0.00000093,0.41959337,-0.00000150,0.00480338,6.28318235,0.02253066,0.00000142,-0.26968084,0.00000024,0.01552309,-0.00000069,0.00000000,0.00000042,0.00000000,0.00000000,0.00000000,0.00000000,0.00000000,0.00000000,0.00000000,0.00000000,
3.35000000,0.04782452,0.00000098,0.40610408,-0.00000148,0.00557954,6.28318232,0.02407880,0.00000145,-0.28150270,0.00000028,0.01597411,-0.00000068,0.00000000,0.00000043,0.00000000,0.00000000,0.00000000,0.00000000,0.00000000,0.00000000,0.00000000,0.00000000,
3.40000000,0.04894991,0.00000103,0.39202244,-0.00000147,0.00637824,6.28318228,0.02577697,0.00000149,-0.29319730,0.00000031,0.01642618,-0.00000067,0.00000000,0.00000044,0.00000000,0.00000000,0.00000000,0.00000000,0.00000000,0.00000000,0.00000000,0.00000000,
3.45000000,0.05014523,0.00000107,0.37735466,-0.00000146,0.00719955,6.28318225,0.02762956,0.00000152,-0.30475949,0.00000035,0.01687928,-0.00000066,0.00000000,0.00000045,0.00000000,0.00000000,0.00000000,0.00000000,0.00000000,0.00000000,0.00000000,0.00000000,
3.50000000,0.05141697,0.00000112,0.36210713,-0.00000144,0.00804352,6.28318221,0.02964088,0.00000155,-0.31618418,0.00000038,0.01733334,-0.00000065,0.00000000,0.00000046,0.00000000,0.00000000,0.00000000,0.00000000,0.00000000,0.00000000,0.00000000,0.00000000,
3.55000000,0.05277180,0.00000118,0.34628651,-0.00000142,0.00891018,6.28318218,0.03181506,0.00000158,-0.32746633,0.00000041,0.01778826,-0.00000063,0.00000000,0.00000047,0.00000000,0.00000000,0.00000000,0.00000000,0.00000000,0.00000000,0.00000000,0.00000000,
3.60000000,0.05421661,0.00000123,0.32989967,-0.00000140,0.00979960,6.28318215,0.03415615,0.00000161,-0.33860098,0.00000044,0.01824390,-0.00000062,0.00000000,0.00000049,0.00000000,0.00000000,0.00000000,0.00000000,0.00000000,0.00000000,0.00000000,0.00000000,
3.65000000,0.05575843,0.00000128,0.31295370,-0.00000138,0.01071179,6.28318211,0.03666801,0.00000163,-0.34958323,0.00000047,0.01870006,-0.00000061,0.00000000,0.00000050,0.00000000,0.00000000,0.00000000,0.00000000,0.00000000,0.00000000,0.00000000,0.00000000,
3.70000000,0.05740449,0.00000133,0.29545590,-0.00000135,0.01164679,6.28318208,0.03935437,0.00000166,-0.36040825,0.00000050,0.01915650,-0.00000059,0.00000000,0.00000052,0.00000000,0.00000000,0.00000000,0.00000000,0.00000000,0.00000000,0.00000000,0.00000000,
3.75000000,0.05916220,0.00000138,0.27741380,-0.00000133,0.01260462,6.28318205,0.04219836,0.00000168,-0.37118784,0.00000052,0.01955989,-0.00000057,0.00000000,0.00000053,0.00000000,0.00000000,0.00000000,0.00000000,0.00000000,0.00000000,0.00000000,0.00000000,
3.80000000,0.06103802,0.00000144,0.25882928,-0.00000130,0.01358261,6.28318202,0.04513034,0.00000168,-0.38184930,0.00000055,0.01950314,-0.00000057,0.00000000,0.00000055,0.00000000,0.00000000,0.00000000,0.00000000,0.00000000,0.00000000,0.00000000,0.00000000,
3.85000000,0.06303502,0.00000149,0.23970793,-0.00000128,0.01455777,6.28318199,0.04804623,0.00000171,-0.39174328,0.00000058,0.01878958,-0.00000055,0.00000000,0.00000057,0.00000000,0.00000000,0.00000000,0.00000000,0.00000000,0.00000000,0.00000000,0.00000000,
3.90000000,0.06515194,0.00000154,0.22008787,-0.00000125,0.01549725,6.28318196,0.05084897,0.00000170,-0.39983280,0.00000060,0.01748840,-0.00000054,0.00000000,0.00000059,0.00000000,0.00000000,0.00000000,0.00000000,0.00000000,0.00000000,0.00000000,0.00000000,
3.95000000,0.06738428,0.00000160,0.20005923,-0.00000122,0.01637167,6.28318194,0.05343277,0.00000169,-0.40530005,0.00000061,0.01560955,-0.00000051,0.00000000,0.00000061,0.00000000,0.00000000,0.00000000,0.00000000,0.00000000,0.00000000,0.00000000,0.00000000,
4.00000000,0.06972380,0.00000165,0.17975321,-0.00000119,0.01715215,6.28318191,0.05568350,0.00000179,-0.40743345,0.00000061,0.01315445,-0.00000041,0.00000000,0.00000063,0.00000000,0.00000000,0.00000000,0.00000000,0.00000000,0.00000000,0.00000000,0.00000000,
4.05000000,0.07215817,0.00000171,0.15933678,-0.00000116,0.01780987,6.28318189,0.05748836,0.00000183,-0.40558024,0.00000059,0.01013240,-0.00000032,0.00000000,0.00000065,0.00000000,0.00000000,0.00000000,0.00000000,0.00000000,0.00000000,0.00000000,0.00000000,
4.10000000,0.07467098,0.00000176,0.13900979,-0.00000113,0.01831649,6.28318187,0.05874416,0.00000173,-0.39914872,0.00000056,0.00656510,-0.00000024,0.00000000,0.00000067,0.00000000,0.00000000,0.00000000,0.00000000,0.00000000,0.00000000,0.00000000,0.00000000,
4.15000000,0.07724217,0.00000182,0.11900191,-0.00000110,0.01864475,6.28318186,0.05936754,0.00000159,-0.38761819,0.00000053,0.00248953,-0.00000012,0.00000000,0.00000070,0.00000000,0.00000000,0.00000000,0.00000000,0.00000000,0.00000000,0.00000000,0.00000000,
4.20000000,0.07984870,0.00000187,0.09956903,-0.00000107,0.01876922,6.28318185,0.05930421,0.00000142,-0.37055727,0.00000051,-0.00204188,-0.00000007,0.00000000,0.00000072,0.00000000,0.00000000,0.00000000,0.00000000,0.00000000,0.00000000,0.00000000,0.00000000,
4.25000000,0.08246565,0.00000191,0.08098878,-0.00000105,0.01866713,6.28318185,0.05853728,0.00000133,-0.34753527,0.00000049,-0.00696434,-0.00000004,0.00000000,0.00000074,0.00000000,0.00000000,0.00000000,0.00000000,0.00000000,0.00000000,0.00000000,0.00000000,
4.30000000,0.08506765,0.00000195,0.06356041,-0.00000102,0.01831891,6.28318185,0.05709325,0.00000121,-0.31823933,0.00000048,-0.01219526,-0.00000001,0.00000000,0.00000077,0.00000000,0.00000000,0.00000000,0.00000000,0.00000000,0.00000000,0.00000000,0.00000000,
4.35000000,0.08763036,0.00000199,0.04759882,-0.00000100,0.01770915,6.28318185,0.05504554,0.00000103,-0.28267276,0.00000046,-0.01763580,-0.00000003,0.00000000,0.00000079,0.00000000,0.00000000,0.00000000,0.00000000,0.00000000,0.00000000,0.00000000,0.00000000,
4.40000000,0.09013192,0.00000201,0.03341866,-0.00000098,0.01682736,6.28318185,0.05251528,0.00000074,-0.24104002,0.00000044,-0.02317852,-0.00000009,0.00000000,0.00000081,0.00000000,0.00000000,0.00000000,0.00000000,0.00000000,0.00000000,0.00000000,0.00000000,
4.45000000,0.09255452,0.00000203,0.02132418,-0.00000096,0.01566843,6.28318184,0.04966646,0.00000045,-0.19376785,0.00000043,-0.02871052,-0.00000024,0.00000000,0.00000083,0.00000000,0.00000000,0.00000000,0.00000000,0.00000000,0.00000000,0.00000000,0.00000000,
4.50000000,0.09488574,0.00000204,0.01159807,-0.00000093,0.01423291,6.28318183,0.04669709,0.00000012,-0.14151353,0.00000043,-0.03411691,-0.00000038,0.00000000,0.00000085,0.00000000,0.00000000,0.00000000,0.00000000,0.00000000,0.00000000,0.00000000,0.00000000,
4.55000000,0.09711966,0.00000203,0.00448988,-0.00000091,0.01252706,6.28318182,0.04382737,-0.00000003,-0.08516000,0.00000044,-0.03928347,-0.00000049,0.00000000,0.00000087,0.00000000,0.00000000,0.00000000,0.00000000,0.00000000,0.00000000,0.00000000,0.00000000,
4.60000000,0.09925752,0.00000202,0.00020476,-0.00000089,0.01056289,6.28318179,0.04128527,-0.00000008,-0.02578471,0.00000045,-0.04409889,-0.00000064,0.00000000,0.00000089,0.00000000,0.00000000,0.00000000,0.00000000,0.00000000,0.00000000,0.00000000,0.00000000,
4.65000000,0.10130805,0.00000200,-0.00110620,-0.00000087,0.00835794,6.28318176,0.03929060,-0.00000021,0.03535344,0.00000046,-0.04845518,-0.00000075,0.00000000,0.00000091,0.00000000,0.00000000,0.00000000,0.00000000,0.00000000,0.00000000,0.00000000,0.00000000,
4.70000000,0.10328728,0.00000199,0.00064499,-0.00000085,0.00593518,6.28318173,0.03803608,-0.00000032,0.09684852,0.00000046,-0.05212295,-0.00000092,0.00000000,0.00000093,0.00000000,0.00000000,0.00000000,0.00000000,0.00000000,0.00000000,0.00000000,0.00000000,
4.75000000,0.10521779,0.00000197,0.00547604,-0.00000082,0.00332904,6.28318168,0.03767421,-0.00000042,0.15705673,0.00000046,-0.05490709,-0.00000111,0.00000000,0.00000095,0.00000000,0.00000000,0.00000000,0.00000000,0.00000000,0.00000000,0.00000000,0.00000000,
4.80000000,0.10712764,0.00000195,0.01332256,-0.00000080,0.00058368,6.28318163,0.03830032,-0.00000062,0.21438829,0.00000044,-0.05672622,-0.00000135,0.00000000,0.00000096,0.00000000,0.00000000,0.00000000,0.00000000,0.00000000,0.00000000,0.00000000,0.00000000,
4.85000000,0.10904891,0.00000192,0.02404086,-0.00000078,-0.00225263,6.28318157,0.03993912,-0.00000066,0.26737788,0.00000043,-0.05752688,-0.00000154,0.00000000,0.00000098,0.00000000,0.00000000,0.00000000,0.00000000,0.00000000,0.00000000,0.00000000,0.00000000,
4.90000000,0.11101574,0.00000189,0.03741421,-0.00000076,-0.00512897,6.28318149,0.04253947,-0.00000074,0.31477143,0.00000041,-0.05728847,-0.00000169,0.00000000,0.00000100,0.00000000,0.00000000,0.00000000,0.00000000,0.00000000,0.00000000,0.00000000,0.00000000,
4.95000000,0.11306197,0.00000185,0.05316349,-0.00000074,-0.00799340,6.28318141,0.04597822,-0.00000079,0.35558943,0.00000038,-0.05602778,-0.00000173,0.00000000,0.00000102,0.00000000,0.00000000,0.00000000,0.00000000,0.00000000,0.00000000,0.00000000,0.00000000,
5.00000000,0.11521869,0.00000182,0.07096077,-0.00000072,-0.01079479,6.28318132,0.05006832,-0.00000073,0.38919722,0.00000037,-0.05380246,-0.00000173,0.00000000,0.00000104,0.00000000,0.00000000,0.00000000,0.00000000,0.00000000,0.00000000,0.00000000,0.00000000,
5.05000000,0.11751190,0.00000179,0.09044652,-0.00000070,-0.01348491,6.28318124,0.05457622,-0.00000077,0.41528888,0.00000035,-0.05071124,-0.00000171,0.00000000,0.00000106,0.00000000,0.00000000,0.00000000,0.00000000,0.00000000,0.00000000,0.00000000,0.00000000,
5.10000000,0.11996046,0.00000175,0.11124587,-0.00000068,-0.01602047,6.28318116,0.05924421,-0.00000079,0.43387457,0.00000033,-0.04689126,-0.00000172,0.00000000,0.00000108,0.00000000,0.00000000,0.00000000,0.00000000,0.00000000,0.00000000,0.00000000,0.00000000,
5.15000000,0.12257476,0.00000172,0.13298427,-0.00000066,-0.01836504,6.28318107,0.06381445,-0.00000075,0.44524771,0.00000032,-0.04251206,-0.00000173,0.00000000,0.00000110,0.00000000,0.00000000,0.00000000,0.00000000,0.00000000,0.00000000,0.00000000,0.00000000,
5.20000000,0.12535612,0.00000168,0.15530150,-0.00000064,-0.02049064,6.28318099,0.06805169,-0.00000056,0.44994204,0.00000033,-0.03776679,-0.00000167,0.00000000,0.00000113,0.00000000,0.00000000,0.00000000,0.00000000,0.00000000,0.00000000,0.00000000,0.00000000,
5.25000000,0.12829704,0.00000166,0.17786359,-0.00000062,-0.02237898,6.28318090,0.07176440,-0.00000049,0.44867233,0.00000035,-0.03286238,-0.00000164,0.00000000,0.00000115,0.00000000,0.00000000,0.00000000,0.00000000,0.00000000,0.00000000,0.00000000,0.00000000,
5.30000000,0.13138237,0.00000163,0.20037188,-0.00000060,-0.02402210,6.28318082,0.07481871,-0.00000051,0.44228443,0.00000036,-0.02801078,-0.00000158,0.00000000,0.00000118,0.00000000,0.00000000,0.00000000,0.00000000,0.00000000,0.00000000,0.00000000,0.00000000,
5.35000000,0.13459104,0.00000161,0.22256958,-0.00000058,-0.02542264,6.28318075,0.07714717,-0.00000060,0.43171192,0.00000037,-0.02342358,-0.00000150,0.00000000,0.00000121,0.00000000,0.00000000,0.00000000,0.00000000,0.00000000,0.00000000,0.00000000,0.00000000,
5.40000000,0.13789845,0.00000157,0.24424626,-0.00000056,-0.02659381,6.28318067,0.07875168,-0.00000058,0.41795267,0.00000037,-0.01931489,-0.00000150,0.00000000,0.00000124,0.00000000,0.00000000,0.00000000,0.00000000,0.00000000,0.00000000,0.00000000,0.00000000,
5.45000000,0.14127896,0.00000154,0.26524120,-0.00000054,-0.02755956,6.28318060,0.07971367,-0.00000054,0.40211851,0.00000036,-0.01594148,-0.00000151,0.00000000,0.00000127,0.00000000,0.00000000,0.00000000,0.00000000,0.00000000,0.00000000,0.00000000,0.00000000,
5.50000000,0.14470909,0.00000151,0.28544932,-0.00000052,-0.02835663,6.28318052,0.08016266,-0.00000052,0.38529890,0.00000036,-0.01356003,-0.00000148,0.00000000,0.00000130,0.00000000,0.00000000,0.00000000,0.00000000,0.00000000,0.00000000,0.00000000,0.00000000,
5.55000000,0.14816940,0.00000148,0.30482017,-0.00000050,-0.02903464,6.28318045,0.08022331,-0.00000045,0.36816095,0.00000035,-0.01207594,-0.00000148,0.00000000,0.00000133,0.00000000,0.00000000,0.00000000,0.00000000,0.00000000,0.00000000,0.00000000,0.00000000,
5.60000000,0.15164447,0.00000145,0.32333690,-0.00000048,-0.02963843,6.28318038,0.08000387,-0.00000038,0.35111250,0.00000036,-0.01120322,-0.00000148,0.00000000,0.00000136,0.00000000,0.00000000,0.00000000,0.00000000,0.00000000,0.00000000,0.00000000,0.00000000,
5.65000000,0.15512267,0.00000142,0.34100336,-0.00000046,-0.03019859,6.28318030,0.07957835,-0.00000033,0.33437670,0.00000037,-0.01062086,-0.00000147,0.00000000,0.00000140,0.00000000,0.00000000,0.00000000,0.00000000,0.00000000,0.00000000,0.00000000,0.00000000,
5.70000000,0.15859496,0.00000139,0.35783471,-0.00000044,-0.03072964,6.28318023,0.07897988,-0.00000027,0.31799476,0.00000037,-0.01008574,-0.00000147,0.00000000,0.00000143,0.00000000,0.00000000,0.00000000,0.00000000,0.00000000,0.00000000,0.00000000,0.00000000,
5.75000000,0.16205357,0.00000137,0.37384827,-0.00000042,-0.03123392,6.28318015,0.07821374,-0.00000022,0.30188853,0.00000038,-0.00954778,-0.00000146,0.00000000,0.00000146,0.00000000,0.00000000,0.00000000,0.00000000,0.00000000,0.00000000,0.00000000,0.00000000,
5.80000000,0.16549097,0.00000135,0.38905746,-0.00000040,-0.03171131,6.28318008,0.07728991,-0.00000017,0.28604253,0.00000039,-0.00900742,-0.00000146,0.00000000,0.00000149,0.00000000,0.00000000,0.00000000,0.00000000,0.00000000,0.00000000,0.00000000,0.00000000,
5.85000000,0.16890006,0.00000133,0.40347493,-0.00000038,-0.03216168,6.28318001,0.07621809,-0.00000013,0.27044182,0.00000040,-0.00846504,-0.00000145,0.00000000,0.00000152,0.00000000,0.00000000,0.00000000,0.00000000,0.00000000,0.00000000,0.00000000,0.00000000,
5.90000000,0.17227418,0.00000131,0.41711257,-0.00000036,-0.03258494,6.28317994,0.07500768,-0.00000008,0.25507197,0.00000041,-0.00792095,-0.00000145,0.00000000,0.00000155,0.00000000,0.00000000,0.00000000,0.00000000,0.00000000,0.00000000,0.00000000,0.00000000,
5.95000000,0.17560707,0.00000129,0.42998158,-0.00000033,-0.03298098,6.28317986,0.07366783,-0.00000004,0.23991902,0.00000041,-0.00737542,-0.00000145,0.00000000,0.00000158,0.00000000,0.00000000,0.00000000,0.00000000,0.00000000,0.00000000,0.00000000,0.00000000,
6.00000000,0.17889289,0.00000127,0.44209247,-0.00000031,-0.03334975,6.28317979,0.07220745,-0.00000000,0.22496945,0.00000042,-0.00682866,-0.00000144,0.00000000,0.00000161,0.00000000,0.00000000,0.00000000,0.00000000,0.00000000,0.00000000,0.00000000,0.00000000,
6.05000000,0.18212619,0.00000126,0.45345507,-0.00000029,-0.03369119,6.28317972,0.07063522,0.00000003,0.21021014,0.00000043,-0.00628085,-0.00000144,0.00000000,0.00000164,0.00000000,0.00000000,0.00000000,0.00000000,0.00000000,0.00000000,0.00000000,0.00000000,
6.10000000,0.18530190,0.00000125,0.46407858,-0.00000026,-0.03400523,6.28317965,0.06895957,0.00000004,0.19562836,0.00000043,-0.00573213,-0.00000144,0.00000000,0.00000167,0.00000000,0.00000000,0.00000000,0.00000000,0.00000000,0.00000000,0.00000000,0.00000000,
6.15000000,0.18841533,0.00000123,0.47397157,-0.00000024,-0.03429184,6.28317958,0.06718877,0.00000004,0.18121174,0.00000043,-0.00518258,-0.00000143,0.00000000,0.00000170,0.00000000,0.00000000,0.00000000,0.00000000,0.00000000,0.00000000,0.00000000,0.00000000,
6.20000000,0.19146215,0.00000122,0.48314201,-0.00000022,-0.03455096,6.28317950,0.06533086,0.00000004,0.16694824,0.00000044,-0.00463228,-0.00000143,0.00000000,0.00000172,0.00000000,0.00000000,0.00000000,0.00000000,0.00000000,0.00000000,0.00000000,0.00000000,
6.25000000,0.19443839,0.00000121,0.49159728,-0.00000019,-0.03478258,6.28317943,0.06339372,0.00000004,0.15282613,0.00000044,-0.00408127,-0.00000143,0.00000000,0.00000175,0.00000000,0.00000000,0.00000000,0.00000000,0.00000000,0.00000000,0.00000000,0.00000000,
6.30000000,0.19734043,0.00000119,0.49934419,-0.00000017,-0.03498664,6.28317936,0.06138509,0.00000005,0.13883396,0.00000044,-0.00352956,-0.00000142,0.00000000,0.00000178,0.00000000,0.00000000,0.00000000,0.00000000,0.00000000,0.00000000,0.00000000,0.00000000,
6.35000000,0.20016499,0.00000118,0.50638900,-0.00000014,-0.03516312,6.28317929,0.05931253,0.00000005,0.12496053,0.00000045,-0.00297714,-0.00000142,0.00000000,0.00000180,0.00000000,0.00000000,0.00000000,0.00000000,0.00000000,0.00000000,0.00000000,0.00000000,
6.40000000,0.20290913,0.00000117,0.51273742,-0.00000012,-0.03531198,6.28317922,0.05718348,0.00000005,0.11119490,0.00000045,-0.00242398,-0.00000142,0.00000000,0.00000183,0.00000000,0.00000000,0.00000000,0.00000000,0.00000000,0.00000000,0.00000000,0.00000000,
6.45000000,0.20557024,0.00000115,0.51839464,-0.00000009,-0.03543318,6.28317915,0.05500527,0.00000005,0.09752632,0.00000045,-0.00187003,-0.00000142,0.00000000,0.00000185,0.00000000,0.00000000,0.00000000,0.00000000,0.00000000,0.00000000,0.00000000,0.00000000,
6.50000000,0.20814603,0.00000114,0.52336533,-0.00000007,-0.03552668,6.28317908,0.05278510,0.00000005,0.08394427,0.00000045,-0.00131523,-0.00000142,0.00000000,0.00000187,0.00000000,0.00000000,0.00000000,0.00000000,0.00000000,0.00000000,0.00000000,0.00000000,
6.55000000,0.21063453,0.00000113,0.52765364,-0.00000004,-0.03559244,6.28317901,0.05053010,0.00000005,0.07043838,0.00000045,-0.00075950,-0.00000142,0.00000000,0.00000190,0.00000000,0.00000000,0.00000000,0.00000000,0.00000000,0.00000000,0.00000000,0.00000000,
6.60000000,0.21303411,0.00000111,0.53126323,-0.00000002,-0.03563041,6.28317894,0.04824731,0.00000005,0.05699844,0.00000045,-0.00020274,-0.00000141,0.00000000,0.00000192,0.00000000,0.00000000,0.00000000,0.00000000,0.00000000,0.00000000,0.00000000,0.00000000,
6.65000000,0.21534342,0.00000110,0.53419728,0.00000001,-0.03564055,6.28317886,0.04594371,0.00000005,0.04361439,0.00000045,0.00035516,-0.00000141,0.00000000,0.00000194,0.00000000,0.00000000,0.00000000,0.00000000,0.00000000,0.00000000,0.00000000,0.00000000,
6.70000000,0.21756144,0.00000109,0.53645847,0.00000003,-0.03562279,6.28317879,0.04362621,0.00000005,0.03027383,0.00000045,0.00091438,-0.00000141,0.00000000,0.00000196,0.00000000,0.00000000,0.00000000,0.00000000,0.00000000,0.00000000,0.00000000,0.00000000,
6.75000000,0.21968746,0.00000108,0.53804889,0.00000006,-0.03557707,6.28317872,0.04130171,0.00000005,0.01696744,0.00000045,0.00147493,-0.00000141,0.00000000,0.00000198,0.00000000,0.00000000,0.00000000,0.00000000,0.00000000,0.00000000,0.00000000,0.00000000,
6.80000000,0.22172106,0.00000107,0.53897018,0.00000008,-0.03550333,6.28317865,0.03897706,0.00000005,0.00368775,0.00000045,0.00203675,-0.00000141,0.00000000,0.00000200,0.00000000,0.00000000,0.00000000,0.00000000,0.00000000,0.00000000,0.00000000,0.00000000,
6.85000000,0.22366214,0.00000106,0.53922363,0.00000011,-0.03540149,6.28317858,0.03665912,0.00000005,-0.00957261,0.00000045,0.00259978,-0.00000141,0.00000000,0.00000201,0.00000000,0.00000000,0.00000000,0.00000000,0.00000000,0.00000000,0.00000000,0.00000000,
6.90000000,0.22551089,0.00000105,0.53881017,0.00000013,-0.03527150,6.28317851,0.03435479,0.00000004,-0.02281783,0.00000044,0.00316120,-0.00000141,0.00000000,0.00000203,0.00000000,0.00000000,0.00000000,0.00000000,0.00000000,0.00000000,0.00000000,0.00000000,
6.95000000,0.22726780,0.00000104,0.53773057,0.00000016,-0.03511344,6.28317844,0.03207092,0.00000004,-0.03604383,0.00000044,0.00372026,-0.00000141,0.00000000,0.00000205,0.00000000,0.00000000,0.00000000,0.00000000,0.00000000,0.00000000,0.00000000,0.00000000,
7.00000000,0.22893362,0.00000103,0.53598578,0.00000018,-0.03492743,6.28317837,0.02981430,0.00000003,-0.04924614,0.00000043,0.00427735,-0.00000141,0.00000000,0.00000206,0.00000000,0.00000000,0.00000000,0.00000000,0.00000000,0.00000000,0.00000000,0.00000000,
7.05000000,0.23050941,0.00000102,0.53357703,0.00000021,-0.03471356,6.28317830,0.02759166,0.00000002,-0.06242029,0.00000043,0.00483289,-0.00000140,0.00000000,0.00000207,0.00000000,0.00000000,0.00000000,0.00000000,0.00000000,0.00000000,0.00000000,0.00000000,
7.10000000,0.23199648,0.00000101,0.53050578,0.00000023,-0.03447192,6.28317823,0.02540968,0.00000001,-0.07556181,0.00000043,0.00538724,-0.00000140,0.00000000,0.00000209,0.00000000,0.00000000,0.00000000,0.00000000,0.00000000,0.00000000,0.00000000,0.00000000,
7.15000000,0.23339642,0.00000100,0.52677372,0.00000025,-0.03420255,6.28317816,0.02327502,-0.00000001,-0.08866624,0.00000042,0.00594078,-0.00000140,0.00000000,0.00000210,0.00000000,0.00000000,0.00000000,0.00000000,0.00000000,0.00000000,0.00000000,0.00000000,
7.20000000,0.23471110,0.00000099,0.52238280,0.00000028,-0.03390552,6.28317809,0.02119429,-0.00000002,-0.10172913,0.00000041,0.00649390,-0.00000139,0.00000000,0.00000211,0.00000000,0.00000000,0.00000000,0.00000000,0.00000000,0.00000000,0.00000000,0.00000000,
7.25000000,0.23594263,0.00000099,0.51733519,0.00000030,-0.03358082,6.28317802,0.01917405,-0.00000002,-0.11474602,0.00000041,0.00704692,-0.00000139,0.00000000,0.00000212,0.00000000,0.00000000,0.00000000,0.00000000,0.00000000,0.00000000,0.00000000,0.00000000,
7.30000000,0.23709342,0.00000098,0.51163331,0.00000032,-0.03322847,6.28317795,0.01722082,-0.00000003,-0.12771246,0.00000040,0.00760020,-0.00000138,0.00000000,0.00000213,0.00000000,0.00000000,0.00000000,0.00000000,0.00000000,0.00000000,0.00000000,0.00000000,
7.35000000,0.23816613,0.00000097,0.50527981,0.00000034,-0.03284846,6.28317788,0.01534109,-0.00000003,-0.14062399,0.00000039,0.00815404,-0.00000137,0.00000000,0.00000214,0.00000000,0.00000000,0.00000000,0.00000000,0.00000000,0.00000000,0.00000000,0.00000000,
7.40000000,0.23916369,0.00000096,0.49827760,0.00000037,-0.03244076,6.28317781,0.01354129,-0.00000004,-0.15347611,0.00000039,0.00870873,-0.00000137,0.00000000,0.00000215,0.00000000,0.00000000,0.00000000,0.00000000,0.00000000,0.00000000,0.00000000,0.00000000,
7.45000000,0.24008930,0.00000096,0.49062979,0.00000039,-0.03200533,6.28317775,0.01182782,-0.00000005,-0.16626436,0.00000038,0.00926454,-0.00000136,0.00000000,0.00000216,0.00000000,0.00000000,0.00000000,0.00000000,0.00000000,0.00000000,0.00000000,0.00000000,
7.50000000,0.24094641,0.00000095,0.48233976,0.00000041,-0.03154210,6.28317768,0.01020702,-0.00000005,-0.17898424,0.00000037,0.00982170,-0.00000135,0.00000000,0.00000217,0.00000000,0.00000000,0.00000000,0.00000000,0.00000000,0.00000000,0.00000000,0.00000000,
7.55000000,0.24173874,0.00000095,0.47341109,0.00000043,-0.03105101,6.28317761,0.00868519,-0.00000006,-0.19163123,0.00000036,0.01038043,-0.00000134,0.00000000,0.00000218,0.00000000,0.00000000,0.00000000,0.00000000,0.00000000,0.00000000,0.00000000,0.00000000,
7.60000000,0.24247026,0.00000094,0.46384763,0.00000045,-0.03053199,6.28317754,0.00726859,-0.00000007,-0.20420082,0.00000036,0.01094089,-0.00000133,0.00000000,0.00000218,0.00000000,0.00000000,0.00000000,0.00000000,0.00000000,0.00000000,0.00000000,0.00000000,
7.65000000,0.24314520,0.00000094,0.45365344,0.00000047,-0.02998495,6.28317748,0.00596341,-0.00000008,-0.21668847,0.00000035,0.01150324,-0.00000132,0.00000000,0.00000219,0.00000000,0.00000000,0.00000000,0.00000000,0.00000000,0.00000000,0.00000000,0.00000000,
7.70000000,0.24376806,0.00000094,0.44283283,0.00000049,-0.02940979,6.28317741,0.00477578,-0.00000008,-0.22908962,0.00000034,0.01206757,-0.00000131,0.00000000,0.00000219,0.00000000,0.00000000,0.00000000,0.00000000,0.00000000,0.00000000,0.00000000,0.00000000,
7.75000000,0.24434357,0.00000093,0.43139032,0.00000051,-0.02880641,6.28317735,0.00371178,-0.00000009,-0.24139973,0.00000033,0.01263397,-0.00000130,0.00000000,0.00000220,0.00000000,0.00000000,0.00000000,0.00000000,0.00000000,0.00000000,0.00000000,0.00000000,
7.80000000,0.24487673,0.00000093,0.41933069,0.00000053,-0.02817471,6.28317728,0.00277742,-0.00000010,-0.25361422,0.00000032,0.01320246,-0.00000129,0.00000000,0.00000220,0.00000000,0.00000000,0.00000000,0.00000000,0.00000000,0.00000000,0.00000000,0.00000000,
7.85000000,0.24537277,0.00000093,0.40665892,0.00000054,-0.02751459,6.28317722,0.00197863,-0.00000011,-0.26572849,0.00000031,0.01377304,-0.00000128,0.00000000,0.00000221,0.00000000,0.00000000,0.00000000,0.00000000,0.00000000,0.00000000,0.00000000,0.00000000,
7.90000000,0.24583719,0.00000093,0.39338025,0.00000056,-0.02682593,6.28317715,0.00132127,-0.00000012,-0.27773797,0.00000030,0.01434567,-0.00000127,0.00000000,0.00000221,0.00000000,0.00000000,0.00000000,0.00000000,0.00000000,0.00000000,0.00000000,0.00000000,
7.95000000,0.24627571,0.00000092,0.37950012,0.00000058,-0.02610865,6.28317709,0.00081110,-0.00000013,-0.28963805,0.00000029,0.01492026,-0.00000126,0.00000000,0.00000222,0.00000000,0.00000000,0.00000000,0.00000000,0.00000000,0.00000000,0.00000000,0.00000000,
8.00000000,0.24669431,0.00000092,0.36502421,0.00000059,-0.02536264,6.28317703,0.00045379,-0.00000014,-0.30142414,0.00000028,0.01549669,-0.00000124,0.00000000,0.00000222,0.00000000,0.00000000,0.00000000,0.00000000,0.00000000,0.00000000,0.00000000,0.00000000,
8.05000000,0.24709920,0.00000092,0.34995843,0.00000061,-0.02458780,6.28317697,0.00025492,-0.00000015,-0.31309165,0.00000027,0.01607479,-0.00000123,0.00000000,0.00000222,0.00000000,0.00000000,0.00000000,0.00000000,0.00000000,0.00000000,0.00000000,0.00000000,
8.10000000,0.24749682,0.00000092,0.33430889,0.00000062,-0.02378406,6.28317691,0.00021995,-0.00000015,-0.32463598,0.00000026,0.01665436,-0.00000122,0.00000000,0.00000223,0.00000000,0.00000000,0.00000000,0.00000000,0.00000000,0.00000000,0.00000000,0.00000000,
8.15000000,0.24789383,0.00000092,0.31808194,0.00000064,-0.02295134,6.28317685,0.00035422,-0.00000016,-0.33605256,0.00000025,0.01723516,-0.00000121,0.00000000,0.00000223,0.00000000,0.00000000,0.00000000,0.00000000,0.00000000,0.00000000,0.00000000,0.00000000,
8.20000000,0.24829715,0.00000092,0.30128415,0.00000065,-0.02208959,6.28317679,0.00065677,-0.00000017,-0.34737911,0.00000024,0.01783077,-0.00000119,0.00000000,0.00000223,0.00000000,0.00000000,0.00000000,0.00000000,0.00000000,0.00000000,0.00000000,0.00000000,
8.25000000,0.24871362,0.00000092,0.28392015,0.00000067,-0.02119805,6.28317673,0.00111955,-0.00000017,-0.35865103,0.00000022,0.01860947,-0.00000119,0.00000000,0.00000224,0.00000000,0.00000000,0.00000000,0.00000000,0.00000000,0.00000000,0.00000000,0.00000000,
8.30000000,0.24914969,0.00000092,0.26599282,0.00000068,-0.02026758,6.28317667,0.00176128,-0.00000016,-0.36969235,0.00000020,0.01982561,-0.00000118,0.00000000,0.00000224,0.00000000,0.00000000,0.00000000,0.00000000,0.00000000,0.00000000,0.00000000,0.00000000,
8.35000000,0.24961235,0.00000092,0.24751378,0.00000069,-0.01927629,6.28317661,0.00262531,-0.00000016,-0.38014529,0.00000018,0.02166881,-0.00000118,0.00000000,0.00000225,0.00000000,0.00000000,0.00000000,0.00000000,0.00000000,0.00000000,0.00000000,0.00000000,
8.40000000,0.25010996,0.00000092,0.22851258,0.00000070,-0.01819285,6.28317655,0.00377974,-0.00000018,-0.38938177,0.00000015,0.02407441,-0.00000118,0.00000000,0.00000225,0.00000000,0.00000000,0.00000000,0.00000000,0.00000000,0.00000000,0.00000000,0.00000000,
8.45000000,0.25065309,0.00000092,0.20905015,0.00000071,-0.01698913,6.28317649,0.00532042,-0.00000019,-0.39642039,0.00000013,0.02677058,-0.00000118,0.00000000,0.00000226,0.00000000,0.00000000,0.00000000,0.00000000,0.00000000,0.00000000,0.00000000,0.00000000,
8.50000000,0.25125580,0.00000092,0.18923651,0.00000072,-0.01565060,6.28317644,0.00728260,-0.00000027,-0.40046381,0.00000010,0.02957708,-0.00000114,0.00000000,0.00000226,0.00000000,0.00000000,0.00000000,0.00000000,0.00000000,0.00000000,0.00000000,0.00000000,
8.55000000,0.25193325,0.00000091,0.16922147,0.00000072,-0.01417175,6.28317638,0.00965697,-0.00000039,-0.40080595,0.00000008,0.03234252,-0.00000107,0.00000000,0.00000227,0.00000000,0.00000000,0.00000000,0.00000000,0.00000000,0.00000000,0.00000000,0.00000000,
8.60000000,0.25270005,0.00000090,0.14919003,0.00000073,-0.01255462,6.28317633,0.01239457,-0.00000041,-0.39680954,0.00000006,0.03492914,-0.00000100,0.00000000,0.00000227,0.00000000,0.00000000,0.00000000,0.00000000,0.00000000,0.00000000,0.00000000,0.00000000,
8.65000000,0.25356881,0.00000089,0.12935889,0.00000073,-0.01080817,6.28317628,0.01541069,-0.00000032,-0.38791076,0.00000005,0.03721056,-0.00000090,0.00000000,0.00000228,0.00000000,0.00000000,0.00000000,0.00000000,0.00000000,0.00000000,0.00000000,0.00000000,
8.70000000,0.25454892,0.00000088,0.10997282,0.00000073,-0.00894764,6.28317623,0.01858905,-0.00000024,-0.37363641,0.00000002,0.03907417,-0.00000088,0.00000000,0.00000229,0.00000000,0.00000000,0.00000000,0.00000000,0.00000000,0.00000000,0.00000000,0.00000000,
8.75000000,0.25564550,0.00000087,0.09130006,0.00000073,-0.00699393,6.28317619,0.02178946,-0.00000019,-0.35362574,-0.00000002,0.04042406,-0.00000088,0.00000000,0.00000230,0.00000000,0.00000000,0.00000000,0.00000000,0.00000000,0.00000000,0.00000000,0.00000000,
8.80000000,0.25685860,0.00000086,0.07362683,0.00000073,-0.00497273,6.28317615,0.02485731,-0.00000017,-0.32765287,-0.00000006,0.04118455,-0.00000083,0.00000000,0.00000231,0.00000000,0.00000000,0.00000000,0.00000000,0.00000000,0.00000000,0.00000000,0.00000000,
8.85000000,0.25818292,0.00000085,0.05725057,0.00000073,-0.00291350,6.28317611,0.02763619,-0.00000015,-0.29565505,-0.00000011,0.04130267,-0.00000082,0.00000000,0.00000232,0.00000000,0.00000000,0.00000000,0.00000000,0.00000000,0.00000000,0.00000000,0.00000000,
8.90000000,0.25960779,0.00000084,0.04247190,0.00000073,-0.00084837,6.28317607,0.02997940,-0.00000004,-0.25773998,-0.00000015,0.04074997,-0.00000082,0.00000000,0.00000234,0.00000000,0.00000000,0.00000000,0.00000000,0.00000000,0.00000000,0.00000000,0.00000000,
8.95000000,0.26111769,0.00000084,0.02958618,0.00000072,0.00118913,6.28317603,0.03176345,0.00000000,-0.21421749,-0.00000019,0.03952185,-0.00000084,0.00000000,0.00000235,0.00000000,0.00000000,0.00000000,0.00000000,0.00000000,0.00000000,0.00000000,0.00000000,
9.00000000,0.26269313,0.00000083,0.01887342,0.00000071,0.00316522,6.28317599,0.03289905,0.00000005,-0.16561056,-0.00000024,0.03763630,-0.00000093,0.00000000,0.00000236,0.00000000,0.00000000,0.00000000,0.00000000,0.00000000,0.00000000,0.00000000,0.00000000,
9.05000000,0.26431186,0.00000082,0.01058773,0.00000070,0.00504704,6.28317594,0.03333844,0.00000011,-0.11262065,-0.00000028,0.03513128,-0.00000103,0.00000000,0.00000238,0.00000000,0.00000000,0.00000000,0.00000000,0.00000000,0.00000000,0.00000000,0.00000000,
9.10000000,0.26595035,0.00000082,0.00494836,0.00000068,0.00680360,6.28317589,0.03308101,0.00000013,-0.05617245,-0.00000032,0.03206112,-0.00000123,0.00000000,0.00000239,0.00000000,0.00000000,0.00000000,0.00000000,0.00000000,0.00000000,0.00000000,0.00000000,
9.15000000,0.26758525,0.00000081,0.00212855,0.00000067,0.00840666,6.28317583,0.03217476,0.00000019,0.00263998,-0.00000036,0.02849325,-0.00000140,0.00000000,0.00000241,0.00000000,0.00000000,0.00000000,0.00000000,0.00000000,0.00000000,0.00000000,0.00000000,
9.20000000,0.26919504,0.00000080,0.00224702,0.00000065,0.00983132,6.28317576,0.03071272,0.00000026,0.06261632,-0.00000039,0.02449875,-0.00000156,0.00000000,0.00000242,0.00000000,0.00000000,0.00000000,0.00000000,0.00000000,0.00000000,0.00000000,0.00000000,
9.25000000,0.27076138,0.00000080,0.00536258,0.00000063,0.01105626,6.28317569,0.02883151,0.00000033,0.12235820,-0.00000042,0.02003752,-0.00000170,0.00000000,0.00000244,0.00000000,0.00000000,0.00000000,0.00000000,0.00000000,0.00000000,0.00000000,0.00000000,
9.30000000,0.27227051,0.00000080,0.01146418,0.00000060,0.01205813,6.28317560,0.02669729,0.00000038,0.18034599,-0.00000045,0.01521121,-0.00000184,0.00000000,0.00000245,0.00000000,0.00000000,0.00000000,0.00000000,0.00000000,0.00000000,0.00000000,0.00000000,
9.35000000,0.27371400,0.00000080,0.02046473,0.00000058,0.01281870,6.28317551,0.02449995,0.00000029,0.23514768,-0.00000049,0.01013380,-0.00000193,0.00000000,0.00000246,0.00000000,0.00000000,0.00000000,0.00000000,0.00000000,0.00000000,0.00000000,0.00000000,
9.40000000,0.27508961,0.00000079,0.03220545,0.00000056,0.01332539,6.28317541,0.02243797,0.00000014,0.28545807,-0.00000054,0.00493038,-0.00000203,0.00000000,0.00000248,0.00000000,0.00000000,0.00000000,0.00000000,0.00000000,0.00000000,0.00000000,0.00000000,
9.45000000,0.27640160,0.00000078,0.04646213,0.00000053,0.01357190,6.28317531,0.02070301,0.00000006,0.33020258,-0.00000060,-0.00026683,-0.00000211,0.00000000,0.00000249,0.00000000,0.00000000,0.00000000,0.00000000,0.00000000,0.00000000,0.00000000,0.00000000,
9.50000000,0.27766072,0.00000076,0.06295669,0.00000050,0.01355856,6.28317521,0.01946287,-0.00000011,0.36854000,-0.00000067,-0.00532173,-0.00000213,0.00000000,0.00000250,0.00000000,0.00000000,0.00000000,0.00000000,0.00000000,0.00000000,0.00000000,0.00000000,
9.55000000,0.27888361,0.00000073,0.08136880,0.00000046,0.01329248,6.28317510,0.01884760,-0.00000013,0.39968917,-0.00000074,-0.01009172,-0.00000211,0.00000000,0.00000251,0.00000000,0.00000000,0.00000000,0.00000000,0.00000000,0.00000000,0.00000000,0.00000000,
9.60000000,0.28009154,0.00000070,0.10133897,0.00000042,0.01278789,6.28317500,0.01893643,-0.00000004,0.42338263,-0.00000081,-0.01444700,-0.00000208,0.00000000,0.00000252,0.00000000,0.00000000,0.00000000,0.00000000,0.00000000,0.00000000,0.00000000,0.00000000,
9.65000000,0.28130899,0.00000068,0.12249426,0.00000038,0.01206554,6.28317489,0.01975259,-0.00000001,0.43965698,-0.00000088,-0.01827735,-0.00000204,0.00000000,0.00000253,0.00000000,0.00000000,0.00000000,0.00000000,0.00000000,0.00000000,0.00000000,0.00000000,
9.70000000,0.28256177,0.00000066,0.14446360,0.00000034,0.01115167,6.28317479,0.02126354,-0.00000002,0.44882334,-0.00000096,-0.02149944,-0.00000199,0.00000000,0.00000254,0.00000000,0.00000000,0.00000000,0.00000000,0.00000000,0.00000000,0.00000000,0.00000000,
9.75000000,0.28387513,0.00000064,0.16689151,0.00000029,0.01007670,6.28317469,0.02338745,-0.00000016,0.45142450,-0.00000105,-0.02406211,-0.00000184,0.00000000,0.00000255,0.00000000,0.00000000,0.00000000,0.00000000,0.00000000,0.00000000,0.00000000,0.00000000,
9.80000000,0.28527189,0.00000061,0.18944981,0.00000023,0.00887360,6.28317460,0.02600512,-0.00000015,0.44818579,-0.00000113,-0.02594886,-0.00000169,0.00000000,0.00000257,0.00000000,0.00000000,0.00000000,0.00000000,0.00000000,0.00000000,0.00000000,0.00000000,
9.85000000,0.28677094,0.00000058,0.21184668,0.00000018,0.00757615,6.28317451,0.02897494,-0.00000011,0.43996505,-0.00000121,-0.02717708,-0.00000159,0.00000000,0.00000258,0.00000000,0.00000000,0.00000000,0.00000000,0.00000000,0.00000000,0.00000000,0.00000000,
9.90000000,0.28838631,0.00000055,0.23383332,0.00000011,0.00621730,6.28317443,0.03214908,-0.00000013,0.42770918,-0.00000127,-0.02779479,-0.00000155,0.00000000,0.00000260,0.00000000,0.00000000,0.00000000,0.00000000,0.00000000,0.00000000,0.00000000,0.00000000,
9.95000000,0.29012669,0.00000052,0.25520838,0.00000005,0.00482756,6.28317435,0.03538920,-0.00000015,0.41242453,-0.00000133,-0.02787543,-0.00000151,0.00000000,0.00000261,0.00000000,0.00000000,0.00000000,0.00000000,0.00000000,0.00000000,0.00000000,0.00000000,
10.00000000,0.29199568,0.00000049,0.27582082,-0.00000002,0.00343379,6.28317428,0.03858064,-0.00000016,0.39517532,-0.00000138,-0.02751136,-0.00000149,0.00000000,0.00000263,0.00000000,0.00000000,0.00000000,0.00000000,0.00000000,0.00000000,0.00000000,0.00000000,
10.05000000,0.29399255,0.00000046,0.29557285,-0.00000009,0.00205822,6.28317420,0.04165474,-0.00000019,0.37719670,-0.00000142,-0.02680264,-0.00000147,0.00000000,0.00000265,0.00000000,0.00000000,0.00000000,0.00000000,0.00000000,0.00000000,0.00000000,0.00000000,
10.10000000,0.29611410,0.00000043,0.31442835,-0.00000016,0.00071809,6.28317413,0.04456336,-0.00000020,0.35994904,-0.00000146,-0.02591810,-0.00000143,0.00000000,0.00000266,0.00000000,0.00000000,0.00000000,0.00000000,0.00000000,0.00000000,0.00000000,0.00000000,
10.15000000,0.29835519,0.00000040,0.33242420,-0.00000023,-0.00057782,6.28317406,0.04715746,-0.00000021,0.34301207,-0.00000150,-0.02505305,-0.00000140,0.00000000,0.00000268,0.00000000,0.00000000,0.00000000,0.00000000,0.00000000,0.00000000,0.00000000,0.00000000,
10.20000000,0.30070315,0.00000037,0.34957616,-0.00000030,-0.00183047,6.28317399,0.04945352,-0.00000022,0.32637017,-0.00000153,-0.02420671,-0.00000136,0.00000000,0.00000271,0.00000000,0.00000000,0.00000000,0.00000000,0.00000000,0.00000000,0.00000000,0.00000000,
10.25000000,0.30314595,0.00000033,0.36589917,-0.00000038,-0.00304080,6.28317392,0.05146724,-0.00000022,0.31000827,-0.00000157,-0.02337832,-0.00000133,0.00000000,0.00000273,0.00000000,0.00000000,0.00000000,0.00000000,0.00000000,0.00000000,0.00000000,0.00000000,
10.30000000,0.30567217,0.00000030,0.38140734,-0.00000046,-0.00420972,6.28317386,0.05321360,-0.00000022,0.29391177,-0.00000159,-0.02256716,-0.00000130,0.00000000,0.00000275,0.00000000,0.00000000,0.00000000,0.00000000,0.00000000,0.00000000,0.00000000,0.00000000,
10.35000000,0.30827096,0.00000027,0.39611400,-0.00000054,-0.00533808,6.28317379,0.05470691,-0.00000022,0.27806657,-0.00000162,-0.02177255,-0.00000127,0.00000000,0.00000277,0.00000000,0.00000000,0.00000000,0.00000000,0.00000000,0.00000000,0.00000000,0.00000000,
10.40000000,0.31093205,0.00000023,0.41003173,-0.00000062,-0.00642671,6.28317373,0.05596082,-0.00000021,0.26245901,-0.00000164,-0.02099383,-0.00000124,0.00000000,0.00000280,0.00000000,0.00000000,0.00000000,0.00000000,0.00000000,0.00000000,0.00000000,0.00000000,
10.45000000,0.31364570,0.00000020,0.42317239,-0.00000070,-0.00747640,6.28317367,0.05698841,-0.00000021,0.24707586,-0.00000166,-0.02023037,-0.00000121,0.00000000,0.00000282,0.00000000,0.00000000,0.00000000,0.00000000,0.00000000,0.00000000,0.00000000,0.00000000,
10.50000000,0.31640267,0.00000016,0.43554714,-0.00000078,-0.00848792,6.28317361,0.05780219,-0.00000020,0.23190428,-0.00000167,-0.01948157,-0.00000119,0.00000000,0.00000285,0.00000000,0.00000000,0.00000000,0.00000000,0.00000000,0.00000000,0.00000000,0.00000000,
10.55000000,0.31919426,0.00000013,0.44716647,-0.00000087,-0.00946199,6.28317355,0.05841414,-0.00000018,0.21693182,-0.00000168,-0.01874688,-0.00000117,0.00000000,0.00000287,0.00000000,0.00000000,0.00000000,0.00000000,0.00000000,0.00000000,0.00000000,0.00000000,
10.60000000,0.32201221,0.00000010,0.45804021,-0.00000095,-0.01039934,6.28317349,0.05883578,-0.00000016,0.20214635,-0.00000168,-0.01802575,-0.00000114,0.00000000,0.00000290,0.00000000,0.00000000,0.00000000,0.00000000,0.00000000,0.00000000,0.00000000,0.00000000,
10.65000000,0.32484873,0.00000007,0.46817757,-0.00000103,-0.01130063,6.28317344,0.05907816,-0.00000014,0.18753611,-0.00000168,-0.01731767,-0.00000112,0.00000000,0.00000292,0.00000000,0.00000000,0.00000000,0.00000000,0.00000000,0.00000000,0.00000000,0.00000000,
10.70000000,0.32769649,0.00000003,0.47758716,-0.00000112,-0.01216651,6.28317338,0.05915190,-0.00000011,0.17308960,-0.00000168,-0.01662214,-0.00000110,0.00000000,0.00000295,0.00000000,0.00000000,0.00000000,0.00000000,0.00000000,0.00000000,0.00000000,0.00000000,
10.75000000,0.33054857,0.00000000,0.48627698,-0.00000120,-0.01299762,6.28317333,0.05906723,-0.00000008,0.15879565,-0.00000167,-0.01593870,-0.00000109,0.00000000,0.00000297,0.00000000,0.00000000,0.00000000,0.00000000,0.00000000,0.00000000,0.00000000,0.00000000,
10.80000000,0.33339849,-0.00000002,0.49425448,-0.00000128,-0.01379455,6.28317327,0.05883401,-0.00000005,0.14464333,-0.00000166,-0.01526692,-0.00000107,-0.00000000,0.00000300,0.00000000,0.00000000,0.00000000,0.00000000,0.00000000,0.00000000,0.00000000,0.00000000,
10.85000000,0.33624015,-0.00000005,0.50152654,-0.00000136,-0.01455790,6.28317322,0.05846176,-0.00000001,0.13062197,-0.00000164,-0.01460636,-0.00000106,-0.00000000,0.00000303,0.00000000,0.00000000,0.00000000,0.00000000,0.00000000,0.00000000,0.00000000,0.00000000,
10.90000000,0.33906785,-0.00000008,0.50809950,-0.00000145,-0.01528822,6.28317317,0.05795967,0.00000003,0.11672112,-0.00000162,-0.01395664,-0.00000104,-0.00000000,0.00000305,0.00000000,0.00000000,0.00000000,0.00000000,0.00000000,0.00000000,0.00000000,0.00000000,
10.95000000,0.34187628,-0.00000010,0.51397917,-0.00000153,-0.01598605,6.28317312,0.05733664,0.00000007,0.10293054,-0.00000160,-0.01331737,-0.00000103,-0.00000000,0.00000308,0.00000000,0.00000000,0.00000000,0.00000000,0.00000000,0.00000000,0.00000000,0.00000000,
11.00000000,0.34466047,-0.00000012,0.51917087,-0.00000161,-0.01665192,6.28317307,0.05660129,0.00000011,0.08924019,-0.00000157,-0.01268822,-0.00000102,-0.00000000,0.00000310,0.00000000,0.00000000,0.00000000,0.00000000,0.00000000,0.00000000,0.00000000,0.00000000,
11.05000000,0.34741585,-0.00000015,0.52367938,-0.00000168,-0.01728633,6.28317302,0.05576197,0.00000015,0.07564019,-0.00000154,-0.01206883,-0.00000101,-0.00000000,0.00000313,0.00000000,0.00000000,0.00000000,0.00000000,0.00000000,0.00000000,0.00000000,0.00000000,
11.10000000,0.35013816,-0.00000016,0.52750902,-0.00000176,-0.01788977,6.28317297,0.05482682,0.00000020,0.06212084,-0.00000151,-0.01145891,-0.00000101,-0.00000000,0.00000315,0.00000000,0.00000000,0.00000000,0.00000000,0.00000000,0.00000000,0.00000000,0.00000000,
11.15000000,0.35282349,-0.00000018,0.53066361,-0.00000183,-0.01846271,6.28317292,0.05380374,0.00000026,0.04867256,-0.00000147,-0.01085817,-0.00000100,-0.00000000,0.00000318,0.00000000,0.00000000,0.00000000,0.00000000,0.00000000,0.00000000,0.00000000,0.00000000,
11.20000000,0.35546829,-0.00000020,0.53314649,-0.00000191,-0.01900562,6.28317287,0.05270042,0.00000032,0.03528590,-0.00000143,-0.01026632,-0.00000100,-0.00000000,0.00000320,0.00000000,0.00000000,0.00000000,0.00000000,0.00000000,0.00000000,0.00000000,0.00000000,
11.25000000,0.35806931,-0.00000021,0.53496054,-0.00000198,-0.01951894,6.28317282,0.05152438,0.00000039,0.02195152,-0.00000138,-0.00968313,-0.00000100,-0.00000000,0.00000322,0.00000000,0.00000000,0.00000000,0.00000000,0.00000000,0.00000000,0.00000000,0.00000000,
11.30000000,0.36062362,-0.00000022,0.53610819,-0.00000205,-0.02000310,6.28317277,0.05028296,0.00000046,0.00866019,-0.00000133,-0.00910836,-0.00000100,-0.00000000,0.00000325,0.00000000,0.00000000,0.00000000,0.00000000,0.00000000,0.00000000,0.00000000,0.00000000,
11.35000000,0.36312860,-0.00000023,0.53659140,-0.00000211,-0.02045851,6.28317272,0.04898336,0.00000053,-0.00459726,-0.00000128,-0.00854180,-0.00000100,-0.00000000,0.00000327,0.00000000,0.00000000,0.00000000,0.00000000,0.00000000,0.00000000,0.00000000,0.00000000,
11.40000000,0.36558196,-0.00000023,0.53641169,-0.00000217,-0.02088560,6.28317267,0.04763249,0.00000061,-0.01782941,-0.00000123,-0.00797865,-0.00000100,-0.00000000,0.00000329,0.00000000,0.00000000,0.00000000,0.00000000,0.00000000,0.00000000,0.00000000,0.00000000,
11.45000000,0.36798168,-0.00000023,0.53557015,-0.00000223,-0.02128454,6.28317262,0.04623706,0.00000070,-0.03103644,-0.00000117,-0.00740980,-0.00000100,-0.00000000,0.00000331,0.00000000,0.00000000,0.00000000,0.00000000,0.00000000,0.00000000,0.00000000,0.00000000,
11.50000000,0.37032604,-0.00000023,0.53406788,-0.00000229,-0.02165503,6.28317257,0.04480398,0.00000078,-0.04421571,-0.00000111,-0.00683478,-0.00000100,-0.00000000,0.00000333,0.00000000,0.00000000,0.00000000,0.00000000,0.00000000,0.00000000,0.00000000,0.00000000,
11.55000000,0.37261358,-0.00000023,0.53190612,-0.00000235,-0.02199677,6.28317252,0.04334021,0.00000087,-0.05736470,-0.00000105,-0.00625312,-0.00000100,-0.00000000,0.00000335,0.00000000,0.00000000,0.00000000,0.00000000,0.00000000,0.00000000,0.00000000,0.00000000,
